{
  "config": {
    "homebase": { "name": "Hotel EMC2", "lat": 41.8935883, "lng": -87.6215303 },
    "radiusMiles": 8
  },
  "categories": {
    "homebase":   { "label": "Homebase",        "color": "#E8956D", "icon": "home" },
    "attractions":{ "label": "Attractions",     "color": "#5B8DB8", "icon": "landmark" },
    "deepdish":   { "label": "Deep Dish Pizza", "color": "#D4A853", "icon": "pizza" },
    "hotdogs":    { "label": "Chicago Dogs",    "color": "#C15B5B", "icon": "beef" },
    "food":       { "label": "Food & Drink",    "color": "#7BA67B", "icon": "utensils" },
    "nightlife":  { "label": "Nightlife",       "color": "#8B7BAB", "icon": "music" },
    "stadiums":   { "label": "Stadiums",        "color": "#5B9E8E", "icon": "trophy" },
    "gangster":   { "label": "Gangster Chicago","color": "#9E7B5B", "icon": "spade" },
    "transit":    { "label": "Transit",         "color": "#9E8E6B", "icon": "train" },
    "zones":      { "label": "Zones",           "color": "#7B9E6B", "icon": "map" }
  },
  "locations": [
    { "name": "Hotel EMC2", "cat": "homebase", "lat": 41.8935883, "lng": -87.6215303, "star": false, "note": "Home base. Art-and-science boutique hotel in Streeterville, steps from the Mag Mile and Navy Pier.", "address": "228 E Ontario St" },

    { "name": "Field Museum (Pokémon Fossil Museum)", "cat": "attractions", "lat": 41.8663064, "lng": -87.6169805, "star": false, "note": "Pokémon Fossil exhibit runs through April 2027. Opens 9am-5pm. ~$33. Book ahead.", "address": "1400 S Lake Shore Dr" },
    { "name": "Cloud Gate (The Bean)", "cat": "attractions", "lat": 41.8826572, "lng": -87.6233039, "star": false, "note": "Iconic mirror sculpture in Millennium Park. Free. Busiest midday — go early or evening.", "address": "201 E Randolph St" },
    { "name": "Obama Presidential Center", "cat": "attractions", "lat": 41.7917, "lng": -87.5872, "star": false, "note": "Opens 10am Sat. ~7.5mi south of home base. No. 10 express bus goes direct. Book at obama.org.", "address": "6001 S Stony Island Ave" },
    { "name": "Chicago Riverwalk", "cat": "attractions", "lat": 41.8881, "lng": -87.6270, "star": false, "note": "Walkable path along the river. Bars, cafes, boat tours. Beautiful at night.", "address": "Chicago Riverwalk" },
    { "name": "Grant Park", "cat": "attractions", "lat": 41.8740, "lng": -87.6196, "star": false, "note": "Large downtown park connecting the Museum Campus to Millennium Park. Home to the Grant Park Music Festival.", "address": "337 E Randolph St" },
    { "name": "Navy Pier", "cat": "attractions", "lat": 41.8917, "lng": -87.6086, "star": false, "note": "Ferris wheel, boat rides, food. Touristy but fun. Walkable from home base.", "address": "600 E Grand Ave" },
    { "name": "Dusty Groove", "cat": "attractions", "lat": 41.9026, "lng": -87.6677, "star": false, "note": "Famous record store. 9am-7pm daily. Deep soul, funk, jazz, and Latin vinyl.", "address": "1120 N Ashland Ave" },
    { "name": "Rooftop Cinema Club", "cat": "attractions", "lat": 41.8868, "lng": -87.6521, "star": false, "note": "Open-air rooftop movies in Fulton Market. Wireless headphones, deck chairs, bar.", "address": "311 N Morgan St, 5th Fl" },
    { "name": "Trump Tower", "cat": "attractions", "lat": 41.8888, "lng": -87.6266, "star": false, "note": "Riverside skyscraper, photo stop along the Riverwalk.", "address": "401 N Wabash Ave" },
    { "name": "Lincoln Park Zoo", "cat": "attractions", "lat": 41.9211, "lng": -87.6339, "star": false, "note": "Free zoo in Lincoln Park. 8am-5pm (later in summer). Easy to combine with the conservatory.", "address": "2001 N Clark St" },
    { "name": "Lincoln Park Conservatory", "cat": "attractions", "lat": 41.9244, "lng": -87.6358, "star": false, "note": "Free Victorian glass-house conservatory. Wed-Sun 10am-4:30pm.", "address": "2391 N Stockton Dr" },
    { "name": "Art Institute of Chicago", "cat": "attractions", "lat": 41.8796, "lng": -87.6237, "star": false, "note": "World-class art museum. Closed Tuesdays. Allow 2-3 hours.", "address": "111 S Michigan Ave" },
    { "name": "Magnificent Mile", "cat": "zones", "lat": 41.8945, "lng": -87.6244, "star": false, "note": "Michigan Ave shopping corridor — flagship stores, hotels, restaurants.", "address": "N Michigan Ave" },
    { "name": "Shedd Aquarium", "cat": "attractions", "lat": 41.8676, "lng": -87.6140, "star": false, "note": "On the Museum Campus next to the Field Museum. ~$50. Book ahead in summer.", "address": "1200 S DuSable Lake Shore Dr" },
    { "name": "University of Chicago", "cat": "attractions", "lat": 41.7886, "lng": -87.5987, "star": false, "note": "Gothic campus on the South Side, near the Obama Center. Good for a walk-around.", "address": "5801 S Ellis Ave" },
    { "name": "Donda's House (Kanye childhood home)", "cat": "attractions", "lat": 41.7624, "lng": -87.6090, "star": false, "note": "Exterior only — private residence on the South Side. A fan photo stop, ~8mi from home base.", "address": "7815 S South Shore Dr" },
    { "name": "North Avenue Beach", "cat": "attractions", "lat": 41.9111, "lng": -87.6270, "star": false, "note": "Lakefront beach with a boathouse bar. Volleyball, skyline views.", "address": "1601 N Lake Shore Dr" },
    { "name": "Wicker Park", "cat": "zones", "lat": 41.9088, "lng": -87.6776, "star": false, "note": "Hip neighborhood — vintage shops, bars, music venues, cafes.", "address": "Wicker Park" },
    { "name": "Garfield Park Conservatory", "cat": "attractions", "lat": 41.8862, "lng": -87.7172, "star": false, "note": "One of the largest conservatories in the US. 4.8 stars. ~$10 for visitors.", "address": "300 N Central Park Ave" },
    { "name": "The Chicago Theatre", "cat": "attractions", "lat": 41.8852970, "lng": -87.6277530, "star": false, "note": "Iconic 1921 landmark marquee. Concerts, comedy, live shows. Check what's on for your dates.", "address": "175 N State St" },
    { "name": "Gold Coast", "cat": "zones", "lat": 41.9050, "lng": -87.6280, "star": false, "note": "Upscale neighborhood — boutiques, Rush Street nightlife, historic mansions.", "address": "Gold Coast" },
    { "name": "Fulton Market District", "cat": "zones", "lat": 41.8868, "lng": -87.6522, "star": false, "note": "Former meatpacking district, now Chicago's hottest dining and nightlife strip.", "address": "Fulton Market District" },
    { "name": "Chinatown Square Plaza", "cat": "zones", "lat": 41.8534, "lng": -87.6320, "star": true, "note": "Two-level outdoor mall — the heart of Chinatown. Restaurants, bubble tea, bakeries.", "address": "2100 S Wentworth Ave" },

    { "name": "Pizzeria Uno", "cat": "deepdish", "lat": 41.8922, "lng": -87.6266, "star": false, "note": "The original birthplace of Chicago deep dish (1943). Near home base.", "address": "29 E Ohio St" },
    { "name": "Lou Malnati's (River North)", "cat": "deepdish", "lat": 41.8901, "lng": -87.6340, "star": false, "note": "Legendary buttercrust deep dish. A local favorite.", "address": "439 N Wells St" },
    { "name": "Gino's East", "cat": "deepdish", "lat": 41.8957, "lng": -87.6228, "star": false, "note": "Famous for graffiti-covered walls — write on them. Classic deep dish.", "address": "162 E Superior St" },
    { "name": "Pequod's Pizza", "cat": "deepdish", "lat": 41.9221, "lng": -87.6644, "star": false, "note": "Cult favorite. Caramelized cheese crust 'halo'. Lincoln Park.", "address": "2207 N Clybourn Ave" },
    { "name": "Bartoli's Pizzeria", "cat": "deepdish", "lat": 41.9476, "lng": -87.6796, "star": false, "note": "Award-winning, BYOB, underrated local pick near Wrigleyville.", "address": "1955 W Addison St" },
    { "name": "Chicago Pizza & Oven Grinder Co.", "cat": "deepdish", "lat": 41.9208, "lng": -87.6374, "star": false, "note": "Across from the St. Valentine's Day Massacre site. Famous upside-down pizza pot pie.", "address": "2121 N Clark St" },

    { "name": "Portillo's", "cat": "hotdogs", "lat": 41.8927, "lng": -87.6313, "star": false, "note": "The gold standard Chicago dog and Italian beef. 2 blocks from home base. Open till 1am.", "address": "100 W Ontario St" },
    { "name": "The Wiener's Circle", "cat": "hotdogs", "lat": 41.9290, "lng": -87.6440, "star": false, "note": "Char dogs and famously sassy late-night staff. Open till 4am Fri/Sat — great post-club stop.", "address": "2622 N Clark St" },
    { "name": "Jim's Original", "cat": "hotdogs", "lat": 41.8643, "lng": -87.6470, "star": false, "note": "Since 1939. Maxwell Street Polish sausage — a piece of Chicago history.", "address": "1250 S Union Ave" },

    { "name": "Mr. Beef", "cat": "food", "lat": 41.8927, "lng": -87.6360, "star": true, "note": "The Italian beef spot that inspired The Bear. Go earlier — lines form. A must.", "address": "666 N Orleans St" },
    { "name": "Chicago Chop House", "cat": "food", "lat": 41.8927, "lng": -87.6285, "star": false, "note": "Fine-dining steakhouse, 4.7 stars. Walking distance from home base. 4-10pm daily.", "address": "60 W Ontario St" },
    { "name": "Molly Tea", "cat": "food", "lat": 41.8530, "lng": -87.6320, "star": false, "note": "Popular bubble tea spot in Chinatown on Wentworth.", "address": "Wentworth Ave, Chinatown" },
    { "name": "Postcard Cafe", "cat": "food", "lat": 41.8868, "lng": -87.6519, "star": false, "note": "Aesthetic Fulton Market cafe — matcha lattes. 7am-7pm daily.", "address": "170 N Morgan St" },
    { "name": "Levain Bakery", "cat": "food", "lat": 41.8842, "lng": -87.6488, "star": false, "note": "Famous oversized cookies. 7:30am-11pm daily. Fulton Market.", "address": "840 W Randolph St" },
    { "name": "Gao's BBQ & Crab", "cat": "food", "lat": 41.8514, "lng": -87.6347, "star": false, "note": "Chinese BBQ skewers and crab near Chinatown. Open till 2am — great late-night food.", "address": "232 W 22nd Pl" },

    { "name": "Sound Bar", "cat": "nightlife", "lat": 41.8932, "lng": -87.6347, "star": false, "note": "Multi-room club, big sound system. 2 blocks from home base. Fri/Sat 10pm-4/5am.", "address": "226 W Ontario St" },
    { "name": "Spy Bar", "cat": "nightlife", "lat": 41.8927, "lng": -87.6353, "star": true, "note": "Hot spot. Intimate underground club, house and techno. River North. 5-min walk from home base.", "address": "646 N Franklin St" },
    { "name": "Kashmir", "cat": "nightlife", "lat": 41.8862, "lng": -87.6661, "star": false, "note": "West Loop club, ~15-min Uber. Fri/Sat 9pm-2/3am.", "address": "160 N Ogden Ave" },
    { "name": "Smart Bar", "cat": "nightlife", "lat": 41.9495, "lng": -87.6586, "star": false, "note": "Legendary house/techno club below Metro in Wrigleyville. ~4mi north.", "address": "3730 N Clark St" },
    { "name": "Beauty Bar", "cat": "nightlife", "lat": 41.8963, "lng": -87.6638, "star": false, "note": "Dance club in a retro salon setting, West Town. ~2.5mi west.", "address": "1444 W Chicago Ave" },
    { "name": "Cara Cara Club", "cat": "nightlife", "lat": 41.9255, "lng": -87.7079, "star": false, "note": "Logan Square spot. Fri/Sat 5pm-1am. ~5mi northwest.", "address": "2545 N Kedzie Blvd" },
    { "name": "Podlasie Club", "cat": "nightlife", "lat": 41.9345, "lng": -87.7172, "star": false, "note": "Avondale dance club. ~6mi northwest — the farthest of the nightlife picks.", "address": "2918 N Central Park Ave" },
    { "name": "Smoke & Mirrors", "cat": "nightlife", "lat": 41.9192, "lng": -87.6873, "star": false, "note": "Logan Square club. Fri/Sat 10pm-4/5am.", "address": "2045 N Milwaukee Ave" },
    { "name": "Radius Chicago", "cat": "nightlife", "lat": 41.8530, "lng": -87.6370, "star": false, "note": "Large live-music and DJ venue near Chinatown, by the Cermak-Chinatown stop.", "address": "640 W Cermak Rd" },

    { "name": "Soldier Field", "cat": "stadiums", "lat": 41.8623, "lng": -87.6167, "star": false, "note": "Chicago Bears and major concerts. Next to the Field Museum and Shedd.", "address": "1410 S Museum Campus Dr" },
    { "name": "Wrigley Field", "cat": "stadiums", "lat": 41.9484, "lng": -87.6553, "star": false, "note": "Iconic 1914 Cubs ballpark. The Wrigleyville bar scene around it is worth it even without a game.", "address": "1060 W Addison St" },
    { "name": "Guaranteed Rate Field", "cat": "stadiums", "lat": 41.8299, "lng": -87.6338, "star": false, "note": "Chicago White Sox. Red Line to Sox/35th. Near Chinatown.", "address": "333 W 35th St" },
    { "name": "United Center", "cat": "stadiums", "lat": 41.8807, "lng": -87.6742, "star": false, "note": "Bulls and Blackhawks, plus major concerts. ~2.5mi west.", "address": "1901 W Madison St" },
    { "name": "Wintrust Arena", "cat": "stadiums", "lat": 41.8530, "lng": -87.6270, "star": false, "note": "Smaller arena — DePaul basketball and concerts. Near Chinatown/South Loop.", "address": "200 E Cermak Rd" },

    { "name": "Green Mill Cocktail Lounge", "cat": "gangster", "lat": 41.9692, "lng": -87.6599, "star": false, "note": "1920s gangster site. Capone's favorite booth still there. Live jazz nightly. Uptown, ~5.5mi north.", "address": "4802 N Broadway" },
    { "name": "Green Door Tavern", "cat": "gangster", "lat": 41.8946, "lng": -87.6374, "star": false, "note": "1920s gangster site. Original Prohibition speakeasy with a basement bar (The Drifter). Steps from home base.", "address": "678 N Orleans St" },
    { "name": "St. Valentine's Day Massacre Site", "cat": "gangster", "lat": 41.9141, "lng": -87.6373, "star": false, "note": "1920s gangster site. Empty lot where 7 men were gunned down in 1929. Historical marker only.", "address": "2122 N Clark St" },
    { "name": "Harry Caray's Italian Steakhouse", "cat": "gangster", "lat": 41.8891, "lng": -87.6293, "star": false, "note": "1920s gangster site. Frank Nitti's former apartment; hidden tunnel and vault in the basement. Near home base.", "address": "33 W Kinzie St" },
    { "name": "Chicago History Museum", "cat": "gangster", "lat": 41.9117, "lng": -87.6317, "star": false, "note": "Best Prohibition and Capone exhibits in the city. Closed Mondays.", "address": "1601 N Clark St" },
    { "name": "Holy Name Cathedral", "cat": "gangster", "lat": 41.8964, "lng": -87.6285, "star": false, "note": "1920s gangster site. 1926 bullet holes from the Hymie Weiss hit once visible outside. One block from home base.", "address": "735 N State St" },
    { "name": "Chicago Gangsters & Ghosts Tour", "cat": "gangster", "lat": 41.8874, "lng": -87.6257, "star": false, "note": "4.9-star walking tour covering the major mob sites. A good one-stop overview.", "address": "71 E Wacker Dr" },
    { "name": "Biograph Theater", "cat": "gangster", "lat": 41.9263, "lng": -87.6498, "star": false, "note": "1920s/30s gangster site. John Dillinger was shot by FBI agents in the alley here in 1934. Mural marks the spot.", "address": "2433 N Lincoln Ave" },
    { "name": "Al Capone's Chicago Manor", "cat": "gangster", "lat": 41.7625, "lng": -87.6188, "star": false, "note": "1920s gangster site. Capone's actual family home — exterior only, sealed escape tunnels. ~8mi south.", "address": "7244 S Prairie Ave" },
    { "name": "Chicago Crime Tours", "cat": "gangster", "lat": 41.8975, "lng": -87.6236, "star": false, "note": "4.8-star bus tour of gangster sites. 2 blocks from home base.", "address": "163 E Pearson St" },

    { "name": "Cermak-Chinatown CTA", "cat": "transit", "lat": 41.8530, "lng": -87.6306, "star": false, "note": "Red Line stop — the direct shot south to Chinatown from downtown.", "address": "Cermak-Chinatown Station" },
    { "name": "Chicago/State CTA", "cat": "transit", "lat": 41.8963, "lng": -87.6285, "star": false, "note": "Red Line stop nearest to home base — one block away.", "address": "Chicago/State Station" },
    { "name": "No. 10 Bus — Obama Express", "cat": "transit", "lat": 41.8869, "lng": -87.6246, "star": false, "note": "Downtown stop for the No. 10 express bus to the Museum Campus and Obama Center.", "address": "Michigan Ave downtown" }
  ]
}
